[ 
 {"id":"1", "USGSid":"09361500","name": "Town Run", "nameProper":"Animas River", "class":"II", "state":"CO", "season": "Spring, Summer, Fall, Winter", "recommend":250,"type": "Feature","geometry":{"type":"Point", "coordinates":[-107.42, 37.28]}},
 {"id":"2", "USGSid":"09359020","name": "Baker's Box", "nameProper":"Animas River", "class":"IV-V", "state":"CO", "season": "Spring, Summer, Fall, Winter", "recommend":250},
 {"id":"3", "USGSid":"09359020","name": "Pandora's Box", "nameProper":"Animas River", "class":"V", "state":"CO", "season": "Spring, Summer, Fall, Winter", "recommend":250},
 {"id":"4", "USGSid":"09359020","name": "Upper Animas", "nameProper":"Animas River", "class":"IV-V", "state":"CO", "season": "Spring, Summer, Fall, Winter", "recommend":250,"type": "Feature","geometry":{"type":"Point", "coordinates":[-107.667497,37.802915]}},
 {"id":"5", "USGSid":"07094500","name": "Royal Gorge", "nameProper":"Arkansas River", "class":"III", "state":"CO", "season": "Spring, Summer, Fall, Winter", "recommend":250,"type": "Feature","geometry":{"type":"Point", "coordinates":[-105.325562,38.461278]}},
 {"id":"6", "USGSid":"07094500","name": "Brown's Canyon", "nameProper":"Arkansas River", "class":"III", "state":"CO", "season": "Spring, Summer, Fall, Winter", "recommend":400,"type": "Feature","geometry":{"type":"Point", "coordinates":[ -106.051061, 38.651211]}},
 {"id":"7", "USGSid":"07087050","name": "Fractions", "nameProper":"Arkansas River", "class":"III", "state":"CO", "season": "Spring, Summer, Fall, Winter", "recommend":250,"type": "Feature","geometry":{"type":"Point", "coordinates":[-106.168924, 38.924505]}},
 {"id":"8", "USGSid":"07087050","name": "Numbers", "nameProper":"Arkansas River", "class":"IV", "state":"CO", "season": "Spring, Summer, Fall, Winter", "recommend":250,"type": "Feature","geometry":{"type":"Point", "coordinates":[-106.239371,39.004710]}},
 {"id":"9", "USGSid":"07087050","name": "Pine Creek", "nameProper":"Arkansas River", "class":"IV-V", "state":"CO", "season": "Spring, Summer, Fall, Winter", "recommend":250,"type": "Feature","geometry":{"type":"Point", "coordinates":[-106.235636, 39.016222]}},
 {"id":"10", "USGSid":"09075400","name": "Castle Creek", "nameProper":"Castle Creek", "class":"IV", "state":"CO", "season": "Spring, Summer", "recommend":400,"type": "Feature","geometry":{"type":"Point", "coordinates":[ -106.843607,39.175431]}},
 {"id":"11", "USGSid":"06716100","name": "West Fork Clear Creek", "nameProper":"Clear Creek", "class":"V", "state":"CO", "season": "Spring, Summer", "recommend":200,"type": "Feature","geometry":{"type":"Point", "coordinates":[-105.864276,39.779223]}},
 {"id":"12", "USGSid":"06719505","name": "Golden PlayPark", "nameProper":"Clear Creek", "class":"III", "state":"CO", "season": "Spring, Summer", "recommend":200,"type": "Feature","geometry":{"type":"Point", "coordinates":[-105.226153,39.754805]}},
 {"id":"13", "USGSid":"06719505","name": "Lower Clear Creek", "nameProper":"Clear Creek", "class":"IV", "state":"CO", "season": "Spring, Summer", "recommend":250,"type": "Feature","geometry":{"type":"Point", "coordinates":[-105.297463,39.743698]}},
 {"id":"14", "USGSid":"06719505","name": "Black Rock", "nameProper":"Clear Creek", "class":"V", "state":"CO", "season": "Spring, Summer", "recommend":250,"type": "Feature","geometry":{"type":"Point", "coordinates":[-105.339271,39.740907]}},
 {"id":"15", "USGSid":"06719505","name": "Kermits", "nameProper":"Clear Creek", "class":"IV+", "state":"CO", "season": "Spring, Summer", "recommend":500,"type": "Feature","geometry":{"type":"Point", "coordinates":[-105.437792,39.746350]}},
 {"id":"16", "USGSid":"06716500","name": "Lawson to Idaho Springs", "nameProper":"Clear Creek", "class":"IV", "state":"CO", "season": "Spring, Summer", "recommend":500,"type": "Feature","geometry":{"type":"Point", "coordinates":[-105.637881, 39.762916]}},
 {"id":"17", "USGSid":"09058000","name":"Gore Canyon","nameProper":"Colorado River", "class":"V", "state":"CO","season":"All Year", "recommend":250,"type": "Feature", "geometry":{"type":"Point", "coordinates":[-106.50, 39.99 ]}},
 {"id":"18", "USGSid":"09058000","name":"Pumphouse CampGround to State Bridge","nameProper":"Colorado River", "class":"II", "state":"CO","season":"All Year", "recommend":500,"type": "Feature","geometry":{"type":"Point", "coordinates":[-106.510209,39.988024]}},
 {"id":"19", "USGSid":"09058000","name":"State Bridge to Burns","nameProper":"Colorado River", "state":"CO", "class":"II", "season":"All Year", "recommend":500,"type": "Feature","geometry":{"type":"Point", "coordinates":[-106.649001,39.858358]}},
 {"id":"20", "USGSid":"09058000","name":"Burns to Dotsero","nameProper":"Colorado River", "state":"CO", "class":"I", "season":"All Year", "recommend":500,"type": "Feature","geometry":{"type":"Point", "coordinates":[-106.887259,39.873430]}},
 {"id":"21", "USGSid":"09070500","name":"Shoshone","nameProper":"Colorado River", "state":"CO", "class": "III", "season":"All Year", "recommend":500,"type": "Feature","geometry":{"type":"Point", "coordinates":[-107.227791,39.569469]}},
 {"id":"22", "USGSid":"09070500","name":"Grizzly to Two Rivers Park", "nameProper":"Colorado River", "class":"II", "state":"CO","season":"All Year", "recommend":500,"type": "Feature","geometry":{"type":"Point", "coordinates":[-107.250476,39.560756]}},
 {"id":"23", "USGSid":"09081600","name":"North Fork", "nameProper":"Crystal River", "class":"V", "state":"CO","season":"Spring, Summer", "recommend":700,"type": "Feature","geometry":{"type":"Point", "coordinates":[-107.089451,39.071828]}},
 {"id":"24", "USGSid":"09081600","name":"South Fork", "nameProper":"Crystal River", "class":"V", "state":"CO","season":"Spring, Summer", "recommend":200,"type": "Feature","geometry":{"type":"Point", "coordinates":[-107.050675,39.024020]}},
 {"id":"25", "USGSid":"09081600","name":"Crystal Gorge", "nameProper":"Crystal River", "class":"V+", "state":"CO","season":"Spring, Summer", "recommend":200,"type": "Feature","geometry":{"type":"Point", "coordinates":[-107.145071,39.064167]}},
 {"id":"26", "USGSid":"09081600","name":"Marble to Redstone", "nameProper":"Crystal River", "class":"V", "state":"CO","season":"Spring, Summer", "recommend":500,"type": "Feature","geometry":{"type":"Point", "coordinates":[-107.181566,39.072340]}},
 {"id":"27", "USGSid":"09081600","name":"Meat Grinder", "nameProper":"Crystal River", "class":"V+", "state":"CO","season":"Spring, Summer", "recommend":500,"type": "Feature","geometry":{"type":"Point", "coordinates":[-107.231895,39.202012]}},
 {"id":"28", "USGSid":"09081600","name":"Narrows", "nameProper":"Crystal River", "class":"IV", "state":"CO","season":"Spring, Summer", "recommend":400,"type": "Feature","geometry":{"type":"Point", "coordinates":[-107.227735,39.21414]}},
 {"id":"29", "USGSid":"09063000","name":"Gilman Gorge", "nameProper":"Eagle River", "class":"V", "state":"CO","season":"Spring, Summer", "recommend":250,"type": "Feature","geometry":{"type":"Point", "coordinates":[-106.378629,39.507236]}},
 {"id":"30", "USGSid":"09064600","name":"Dowd Chute", "nameProper":"Eagle River", "class":"V", "state":"CO","season":"Spring, Summer", "recommend":400,"type": "Feature","geometry":{"type":"Point", "coordinates":[ -106.451710,39.609670]}},
 {"id":"31", "USGSid":"09112200","name":"Upper East", "nameProper":"East River", "class":"IV-V", "state":"CO","season":"Spring, Summer", "recommend":400,"type": "Feature","geometry":{"type":"Point", "coordinates":[-107.008848,38.989780]}},
 {"id":"32", "USGSid":"09238900","name":"Upper Fish Creek", "nameProper":"Fish Creek", "class":"V", "state":"CO","season":"Spring, Summer", "recommend":200,"type": "Feature","geometry":{"type":"Point", "coordinates":[-106.771543,40.481536]}},
 {"id":"33", "USGSid":"09238900","name":"Lower Fish Creek", "nameProper":"Fish Creek", "class":"V", "state":"CO","season":"Spring, Summer", "recommend":200,"type": "Feature","geometry":{"type":"Point", "coordinates":[ -106.789015,40.474860]}},
 {"id":"34", "USGSid":"09066325","name":"Gore Creek", "nameProper":"Gore Creek", "class":"III", "state":"CO","season":"Spring, Summer", "recommend":200,"type": "Feature","geometry":{"type":"Point", "coordinates":[-106.358637,39.640393]}},
 {"id":"35", "USGSid":"09066325","name":"Upper Gore Creek", "nameProper":"Gore Creek", "class":"IV-V", "state":"CO","season":"Spring, Summer", "recommend":300,"type": "Feature","geometry":{"type":"Point", "coordinates":[-106.280779,39.624976]}},
 {"id":"36", "USGSid":"09234500","name":"Lodore to Echo", "nameProper":"Green River", "class":"III", "state":"CO","season":"Spring, Summer, Fall", "recommend":1000,"type": "Feature","geometry":{"type":"Point", "coordinates":[-108.893515,40.713274]}},
 {"id":"37", "USGSid":"09234500","name":"Flaming Gorge", "nameProper":"Green River", "class":"III", "state":"CO","season":"Spring, Summer, Fall", "recommend":1000,"type": "Feature","geometry":{"type":"Point", "coordinates":[-109.538638,41.091690]}},
 {"id":"38", "USGSid":"09261000","name":"Split Mountain", "nameProper":"Green River", "class":"III", "state":"CO","season":"Spring, Summer, Fall", "recommend":1000,"type": "Feature","geometry":{"type":"Point", "coordinates":[-109.251612, 40.445146]}},
 {"id":"39", "USGSid":"09132500","name":"North Fork", "nameProper":"Gunnison", "class":"III", "state":"CO","season":"Spring, Summer, Fall", "recommend":700,"type": "Feature","geometry":{"type":"Point", "coordinates":[-107.610400,38.865749]}},
 {"id":"40", "USGSid":"09114500","name":"White Water Park", "nameProper":"Gunnison", "class":"III", "state":"CO","season":"Spring, Summer, Fall", "recommend":700,"type": "Feature","geometry":{"type":"Point", "coordinates":[-106.950122,38.531813]}},
 {"id":"41", "USGSid":"09128000","name":"Black Canyon", "nameProper":"Gunnison", "class":"V+", "state":"CO","season":"Spring, Summer, Fall", "recommend":500,"type": "Feature","geometry":{"type":"Point", "coordinates":[ -107.739646,38.574988]}},
 {"id":"42", "USGSid":"09128000","name":"Gunnison Gorge", "nameProper":"Gunnison", "class":"III", "state":"CO","season":"Spring, Summer, Fall", "recommend":700,"type": "Feature","geometry":{"type":"Point", "coordinates":[ -107.835894, 38.699749]}},
 {"id":"43", "USGSid":"09064000","name":"Homestake Creek", "nameProper":"Eagle River", "class":"V", "state":"CO","season":"Spring, Summer", "recommend":350,"type": "Feature","geometry":{"type":"Point", "coordinates":[-106.377397,39.503005]}},
 {"id":"44", "USGSid":"06746110","name":"Joe Wright Creek", "nameProper":"Cache la Poudre", "class":"V", "state":"CO","season":"Spring, Summer", "recommend":300,"type": "Feature","geometry":{"type":"Point", "coordinates":[-105.876515,40.545185]}},
 {"id":"45", "USGSid":"09111500","name":"Oh Be Joyful Creek", "nameProper":"Slate River", "class":"V", "state":"CO","season":"Spring, Summer", "recommend":400,"type": "Feature","geometry":{"type":"Point", "coordinates":[-107.032776, 38.910150]}},
 {"id":"46", "USGSid":"09349800","name":"Piedra", "nameProper":"Piedra River", "class":"IV-V", "state":"CO","season":"Spring, Summer", "recommend":200,"type": "Feature","geometry":{"type":"Point", "coordinates":[-107.194743,37.422412]}},
 {"id":"47", "USGSid":"09059500","name":"Piney River", "nameProper":"Piney River", "class":"V", "state":"CO","season":"Spring, Summer", "recommend":600,"type": "Feature","geometry":{"type":"Point", "coordinates":[-106.423115,39.709098]}}


]